City_ID,City,Lat,Lng,Max Temp,Humidity,Cloudiness,Wind Speed,Country,Date
0,poum,-20.2333,164.0167,80.4,84,100,17.25,NC,1675854408
1,istok,42.7808,20.4875,28.06,60,77,5.03,XK,1675854581
2,kodra,50.5949,29.5587,26.31,66,5,3.42,UA,1675854582
3,saldanha,-33.0117,17.9442,71.22,67,13,14.5,ZA,1675854582
4,atuona,-9.8,-139.0333,77.95,78,70,16.17,PF,1675854583
5,esperance,-33.8667,121.9,65.82,83,2,11.92,AU,1675854360
6,liverpool,53.4106,-2.9779,42.62,71,100,6.93,GB,1675854583
7,san quintin,30.4833,-115.95,55.31,54,45,2.26,MX,1675854584
8,temyasovo,52.9933,58.1014,19.6,75,4,5.48,RU,1675854584
9,kapaa,22.0752,-159.319,72.88,75,58,17.02,US,1675854393
10,jamestown,42.097,-79.2353,31.33,88,100,9.6,US,1675854449
11,pereslavl-zalesskiy,56.7393,38.8563,22.42,93,99,9.75,RU,1675854585
12,caravelas,-17.7125,-39.2481,81.27,65,99,8.12,BR,1675854585
13,hobyo,5.3505,48.5268,82.71,60,1,18.95,SO,1675854586
14,luanda,-8.8368,13.2343,81.12,65,100,7.43,AO,1675854378
15,georgetown,5.4112,100.3354,81.43,77,89,2.84,MY,1675854587
16,marzuq,14.4,46.4667,87.19,16,53,9.89,YE,1675854587
17,marsabit,2.3284,37.9899,82.4,30,12,14.14,KE,1675854588
18,qiongshan,20.0058,110.3542,73.99,77,58,13.67,CN,1675854588
19,saint-philippe,-21.3585,55.7679,85.59,81,74,14.74,RE,1675854588
20,kalmunai,7.4167,81.8167,81.01,75,94,9.15,LK,1675854589
21,komsomolskiy,40.4272,71.7189,52.52,40,97,4.61,UZ,1675854589
22,mataura,-46.1927,168.8643,45.79,88,80,9.04,NZ,1675854590
23,kalispell,48.1958,-114.3129,30.79,78,61,12.3,US,1675854312
24,ushuaia,-54.8,-68.3,49.93,94,100,10.98,AR,1675854590
25,lebu,-37.6167,-73.65,57.2,89,1,12.73,CL,1675854591
26,brae,60.3964,-1.353,45.07,72,100,35.08,GB,1675854591
27,morro bay,35.3658,-120.8499,53.22,61,45,1.99,US,1675854592
28,port alfred,-33.5906,26.891,70.88,75,100,12.62,ZA,1675854592
29,albany,42.6001,-73.9662,36.7,79,100,9.19,US,1675854592
30,ati,13.2154,18.3353,88.36,11,100,13.69,TD,1675854593
31,cranbrook,49.4999,-115.7688,26.11,90,72,6.78,CA,1675854593
32,xiamen,24.4798,118.0819,60.26,81,35,14.67,CN,1675854594
33,busselton,-33.65,115.3333,69.98,66,0,18.59,AU,1675854594
34,castro,-24.7911,-50.0119,63.95,90,58,3.89,BR,1675854580
35,rikitea,-23.1203,-134.9692,78.8,75,88,11.34,PF,1675854595
36,cape town,-33.9258,18.4232,79.14,51,0,10.02,ZA,1675854381
37,grimshaw,56.1834,-117.6027,10.4,86,91,4.14,CA,1675854595
38,avarua,-21.2078,-159.775,78.71,82,86,7.81,CK,1675854395
39,gombe,10.2897,11.1673,90.0,12,60,15.84,NG,1675854596
40,tiksi,71.6872,128.8694,-39.03,98,53,6.76,RU,1675854403
41,nanortalik,60.1432,-45.2371,16.95,60,85,10.18,GL,1675854596
42,new norfolk,-42.7826,147.0587,52.41,79,63,2.19,AU,1675854597
43,mahebourg,-20.4081,57.7,86.29,66,40,9.22,MU,1675854597
44,rancho palos verdes,33.7445,-118.387,60.01,51,71,3.0,US,1675854597
45,punta arenas,-53.15,-70.9167,52.05,87,100,5.77,CL,1675854398
46,lagoa,39.05,-27.9833,55.74,58,93,12.93,PT,1675854598
47,cherskiy,68.75,161.3,-23.73,98,100,5.99,RU,1675854598
48,bluff,-46.6,168.3333,51.6,66,64,25.23,NZ,1675854599
49,clyde river,70.4692,-68.5914,-32.37,98,96,2.57,CA,1675854599
50,rawson,-43.3002,-65.1023,67.96,41,1,5.73,AR,1675854600
51,kununurra,-15.7667,128.7333,93.81,32,0,3.38,AU,1675854600
52,dikson,73.5069,80.5464,1.54,82,100,22.03,RU,1675854418
53,vaini,-21.2,-175.2,79.84,79,9,10.87,TO,1675854601
54,gimli,50.6336,-96.9907,16.75,97,100,3.58,CA,1675854602
55,ribeira grande,38.5167,-28.7,56.59,59,80,11.95,PT,1675854603
56,coahuayana,18.7333,-103.6833,66.7,87,1,3.53,MX,1675854604
57,geraldton,-28.7667,114.6,74.97,77,0,19.13,AU,1675854571
58,batagay-alyta,67.8006,130.4114,-45.09,100,64,3.4,RU,1675854606
59,barrow,71.2906,-156.7887,-14.78,76,100,11.5,US,1675854370
60,halifax,44.6453,-63.5724,29.39,88,99,9.46,CA,1675854332
61,nizhniy kuranakh,58.8353,125.4869,-19.71,95,99,3.83,RU,1675854608
62,talnakh,69.4865,88.3972,-11.79,97,99,7.85,RU,1675854608
63,miles city,46.4083,-105.8406,31.17,80,75,6.91,US,1675854419
64,concord,37.978,-122.0311,45.72,78,0,2.21,US,1675854609
65,kudahuvadhoo,2.6708,72.8944,81.43,66,98,10.09,MV,1675854610
66,leningradskiy,69.3833,178.4167,-20.67,93,100,4.99,RU,1675854611
67,bilibino,68.0546,166.4372,-35.57,100,100,1.32,RU,1675854612
68,nyuksenitsa,60.4128,44.2397,26.96,94,100,8.5,RU,1675854612
69,hami,42.8,93.45,34.3,61,46,2.17,CN,1675854613
70,muroto,33.2833,134.15,53.17,52,13,12.41,JP,1675854613
71,warren,39.4334,-84.1666,34.18,85,75,3.06,US,1675854614
72,plettenberg bay,-34.0527,23.3716,71.26,66,88,12.37,ZA,1675854614
73,codrington,-38.2667,141.9667,58.3,91,38,8.86,AU,1675854444
74,gander,48.9682,-54.5906,14.16,92,100,11.01,CA,1675854547
75,los angeles,34.0522,-118.2437,57.88,28,87,3.27,US,1675854267
76,tuatapere,-46.1333,167.6833,47.64,82,72,11.25,NZ,1675854615
77,arraial do cabo,-22.9661,-42.0278,76.86,83,75,8.05,BR,1675854619
78,hermanus,-34.4187,19.2345,79.16,51,5,16.75,ZA,1675854622
79,begles,44.8084,-0.5481,46.99,51,4,4.05,FR,1675854622
80,venado tuerto,-33.7456,-61.9688,76.53,33,80,5.35,AR,1675854622
81,hilo,19.7297,-155.09,71.76,82,100,6.44,US,1675854487
82,sinnamary,5.3833,-52.95,76.57,89,100,9.66,GF,1675854625
83,kirakira,-10.4544,161.9205,79.88,87,93,5.79,SB,1675854626
84,batemans bay,-35.7167,150.1833,66.63,89,99,4.54,AU,1675854626
85,mar del plata,-38.0023,-57.5575,72.09,82,79,7.63,AR,1675854503
86,high level,58.5169,-117.136,-5.19,100,34,2.13,CA,1675854627
87,bodden town,19.2833,-81.25,77.94,87,20,11.5,KY,1675854629
88,itoman,26.1247,127.6694,66.76,74,92,16.31,JP,1675854629
89,shelburne,44.0787,-80.2041,29.07,91,94,12.1,CA,1675854352
90,butaritari,3.0707,172.7902,80.78,82,85,22.15,KI,1675854630
91,hithadhoo,-0.6,73.0833,81.95,71,21,8.28,MV,1675854395
92,kihei,20.785,-156.4656,73.85,79,0,13.8,US,1675854632
93,qaanaaq,77.484,-69.3632,-25.1,66,12,5.23,GL,1675854410
94,narsaq,60.9167,-46.05,3.2,65,98,12.59,GL,1675854634
95,northam,51.0333,-4.2167,42.89,70,32,6.02,GB,1675854636
96,yellowknife,62.456,-114.3525,-10.86,97,98,3.49,CA,1675854637
97,ligayan,4.6533,119.4706,78.57,79,100,8.32,PH,1675854637
98,jaque,7.5175,-78.1703,76.71,86,79,3.62,PA,1675854638
99,blagodatnoye,45.3997,42.5867,21.16,92,100,11.88,RU,1675854638
100,hambantota,6.1241,81.1185,84.74,62,93,21.34,LK,1675854639
101,kodiak,57.79,-152.4072,21.31,73,39,7.27,US,1675854356
102,husavik,66.0449,-17.3389,20.14,76,42,14.05,IS,1675854640
103,puerto ayora,-0.7393,-90.3518,75.54,97,66,1.01,EC,1675854633
104,jiazi,22.8779,116.067,63.41,84,100,18.59,CN,1675854641
105,yulara,-25.2406,130.9889,92.32,12,0,10.27,AU,1675854641
106,mildura,-34.2,142.15,79.27,18,0,8.9,AU,1675854642
107,pacific grove,36.6177,-121.9166,50.34,70,0,10.45,US,1675854643
108,padang,-0.9492,100.3543,80.92,80,62,1.63,ID,1675854643
109,lai,9.3952,16.2989,96.49,8,26,6.62,TD,1675854644
110,chokurdakh,70.6333,147.9167,-26.77,98,100,4.97,RU,1675854417
111,alto lucero,19.6167,-96.7167,60.08,83,2,3.8,MX,1675854405
112,sioux lookout,50.1001,-91.917,17.2,97,95,4.29,CA,1675854645
113,viedma,-40.8135,-62.9967,67.48,62,31,7.78,AR,1675854434
114,mumford,5.2618,-0.759,83.26,70,74,9.01,GH,1675854645
115,bredasdorp,-34.5322,20.0403,77.16,49,60,18.88,ZA,1675854646
116,leshukonskoye,64.8989,45.7622,31.06,92,68,8.05,RU,1675854551
117,juru,5.312,100.4423,80.04,82,94,2.71,MY,1675854646
118,bam,29.106,58.357,72.19,30,33,16.62,IR,1675854647
119,itarema,-2.9248,-39.9167,79.41,77,100,11.3,BR,1675854392
120,sao sebastiao,-23.76,-45.4097,76.26,89,56,2.66,BR,1675854647
121,bremerton,47.5673,-122.6326,35.58,92,7,3.02,US,1675854648
122,portland,45.5234,-122.6762,38.05,95,40,3.0,US,1675854581
123,tuktoyaktuk,69.4541,-133.0374,-19.55,97,100,4.56,CA,1675854648
124,escanaba,45.7453,-87.0646,28.71,96,0,3.44,US,1675854382
125,gurlan,41.8447,60.3919,48.15,46,86,15.21,UZ,1675854649
126,auki,-8.7676,160.7034,77.74,89,99,5.66,SB,1675854650
127,nikolskoye,59.7035,30.7861,31.37,94,100,7.27,RU,1675854650
128,kargasok,59.0556,80.8572,-7.04,99,87,5.12,RU,1675854651
129,martinsicuro,42.8811,13.9145,41.5,72,84,6.62,IT,1675854651
130,port hedland,-20.3167,118.5667,86.86,67,52,14.34,AU,1675854651
131,rockport,28.0206,-97.0544,64.98,97,47,11.56,US,1675854479
132,shingu,33.7333,135.9833,43.72,75,8,5.79,JP,1675854652
133,dubbo,-32.25,148.6167,73.31,63,52,17.29,AU,1675854652
134,cidreira,-30.1811,-50.2056,76.42,79,1,12.24,BR,1675854453
135,san cristobal,7.7669,-72.225,65.41,80,97,2.55,VE,1675854563
136,ilulissat,69.2167,-51.1,-28.52,83,38,6.73,GL,1675854653
137,pochutla,15.7432,-96.4661,71.11,50,0,4.9,MX,1675854654
138,makakilo city,21.3469,-158.0858,71.44,73,25,19.46,US,1675854654
139,salaga,8.5508,-0.5188,94.32,36,83,4.94,GH,1675854654
140,roma,43.2128,-75.4557,33.4,95,98,5.91,US,1675854363
141,bambous virieux,-20.3428,57.7575,80.55,73,99,13.8,MU,1675854383
142,santa ana,33.7456,-117.8678,56.82,39,94,2.21,US,1675854655
143,burhanpur,21.3,76.2333,88.27,11,36,8.63,IN,1675854656
144,vao,-22.6667,167.4833,80.08,72,98,12.48,NC,1675854656
145,gambela,8.25,34.5833,102.65,12,23,6.6,ET,1675854657
146,guasdualito,7.2424,-70.7324,74.59,65,98,3.44,VE,1675854657
147,port elizabeth,-33.918,25.5701,70.21,73,100,10.47,ZA,1675854657
148,basco,20.4487,121.9702,76.53,80,62,23.04,PH,1675854658
149,hobart,-42.8794,147.3294,53.78,74,81,2.62,AU,1675854658
150,chimore,-16.9833,-65.1333,71.28,99,100,0.54,BO,1675854658
151,mayumba,-3.432,10.6554,84.45,71,72,11.01,GA,1675854659
152,khatanga,71.9667,102.5,-45.65,100,75,4.12,RU,1675854659
153,camacha,33.0833,-16.3333,58.03,60,66,9.28,PT,1675854372
154,navirai,-23.065,-54.1906,73.74,83,83,3.2,BR,1675854660
155,thompson,55.7435,-97.8558,-1.43,100,100,3.09,CA,1675854660
156,zhangye,38.9342,100.4517,32.79,46,96,2.28,CN,1675854661
157,san patricio,28.017,-97.5169,71.55,96,24,12.12,US,1675854662
158,bail hongal,15.8167,74.8667,89.85,23,91,10.31,IN,1675854662
159,vila franca do campo,37.7167,-25.4333,57.2,76,52,10.76,PT,1675854663
160,jurm,36.8648,70.8342,44.24,72,100,1.7,AF,1675854664
161,tessalit,20.1986,1.0114,80.58,11,52,12.35,ML,1675854664
162,aripuana,-9.1667,-60.6333,70.12,96,61,0.85,BR,1675854665
163,trairi,-3.2778,-39.2689,79.59,78,89,8.75,BR,1675854647
164,chuy,-33.6971,-53.4616,73.35,75,44,8.77,UY,1675854666
165,namibe,-15.1961,12.1522,78.8,58,98,10.56,AO,1675854667
166,mae sai,20.4335,99.8762,75.67,26,1,0.76,TH,1675854667
167,port lincoln,-34.7333,135.8667,70.7,65,36,10.6,AU,1675854668
168,tasiilaq,65.6145,-37.6368,-7.6,50,0,15.21,GL,1675854669
169,tual,-5.6667,132.75,82.17,78,100,19.3,ID,1675854670
170,aksay,47.26,39.87,26.73,67,70,16.31,RU,1675854653
171,kailua,21.4022,-157.7394,73.65,72,22,23.91,US,1675854671
172,melfi,40.9965,15.6514,36.07,69,94,8.41,IT,1675854672
173,teeli,51.0333,90.2333,-1.66,96,100,1.86,RU,1675854674
174,kutum,14.2,24.6667,74.23,11,25,14.5,SD,1675854674
175,vila velha,-20.3297,-40.2925,82.35,86,40,9.22,BR,1675854494
176,saint george,37.1041,-113.5841,40.44,61,66,2.24,US,1675854356
177,klaksvik,62.2266,-6.589,37.83,97,100,27.11,FO,1675854675
178,sao joao da barra,-21.6403,-41.0511,74.68,90,100,3.65,BR,1675854676
179,mount gambier,-37.8333,140.7667,59.45,77,63,9.8,AU,1675854536
180,waipawa,-41.4122,175.5153,53.96,88,3,4.54,NZ,1675854677
181,faanui,-16.4833,-151.75,80.38,76,20,11.16,PF,1675854677
182,mugur-aksy,50.35,90.5,3.22,89,98,5.57,RU,1675854678
183,sur,22.5667,59.5289,83.25,42,83,3.8,OM,1675854679
184,carnarvon,-24.8667,113.6333,77.94,78,5,26.98,AU,1675854680
185,fairbanks,64.8378,-147.7164,5.81,82,100,3.44,US,1675854600
186,ugoofaaru,5.6667,73.0,81.1,69,62,7.85,MV,1675854681
187,souillac,-20.5167,57.5167,81.73,71,100,14.97,MU,1675854682
188,kutoarjo,-7.7169,109.9128,76.77,91,100,2.64,ID,1675854682
189,samarai,-10.6167,150.6667,79.74,84,100,9.26,PG,1675854683
190,balkanabat,39.5108,54.3671,48.2,72,100,7.99,TM,1675854683
191,okhotsk,59.3833,143.3,-19.19,88,49,8.3,RU,1675854684
192,rafai,4.95,23.9167,100.58,8,9,5.99,CF,1675854684
193,jinchang,38.4953,102.1739,28.74,69,93,2.15,CN,1675854685
194,keuruu,62.2667,24.7,33.3,96,100,6.89,FI,1675854686
195,coquimbo,-29.9533,-71.3436,64.17,88,72,1.97,CL,1675854494
196,danville,36.586,-79.395,44.33,87,41,4.85,US,1675854686
197,barcelos,41.5388,-8.6151,53.17,53,50,12.75,PT,1675854687
198,cayenne,4.9333,-52.3333,76.55,89,85,8.7,GF,1675854630
199,mtambile,-5.3833,39.7,85.33,65,30,13.22,TZ,1675854688
200,ca mau,9.1769,105.15,81.68,65,75,10.42,VN,1675854688
201,milicz,51.5277,17.2714,32.9,72,15,9.22,PL,1675854689
202,blackwater,-23.5833,148.8833,76.19,62,55,17.31,AU,1675854690
203,upernavik,72.7868,-56.1549,-23.33,92,66,3.36,GL,1675854610
204,magadan,59.5667,150.8,-17.1,81,43,7.85,RU,1675854691
205,lompoc,34.6391,-120.4579,49.37,64,63,5.21,US,1675854472
206,pisco,-13.7,-76.2167,71.65,88,28,5.75,PE,1675854693
207,tanabe,33.7333,135.3667,43.57,74,11,8.59,JP,1675854694
208,rypefjord,70.6333,23.6667,35.31,68,100,25.41,NO,1675854694
209,kampot,10.6167,104.1833,83.89,67,68,5.46,KH,1675854695
210,sola,-13.8833,167.55,79.95,76,100,1.99,VU,1675854696
211,acapulco,16.8634,-99.8901,73.04,76,0,3.83,MX,1675854696
212,kaitangata,-46.2817,169.8464,49.62,71,48,13.98,NZ,1675854696
213,iqaluit,63.7506,-68.5145,-14.06,94,99,5.41,CA,1675854697
214,kavieng,-2.5744,150.7967,81.77,78,100,8.34,PG,1675854697
215,nome,64.5011,-165.4064,-4.34,93,100,1.01,US,1675854698
216,bethel,41.3712,-73.414,36.19,90,43,7.65,US,1675854699
217,bengkulu,-3.8004,102.2655,80.08,81,89,8.93,ID,1675854699
218,berlevag,70.8578,29.0864,35.6,64,20,48.34,NO,1675854659
219,sheopur,25.6667,76.7,81.16,17,0,8.14,IN,1675854700
220,lynn haven,30.2455,-85.6483,60.01,84,94,1.99,US,1675854701
221,shache,38.4167,77.2406,38.12,43,18,4.7,CN,1675854701
222,college,64.8569,-147.8028,0.37,99,100,1.81,US,1675854702
223,east london,-33.0153,27.9116,71.82,80,100,11.01,ZA,1675854702
224,napasar,27.9667,73.55,80.6,14,2,6.24,IN,1675854703
225,laguna,38.421,-121.4238,42.58,90,0,2.82,US,1675854703
226,roros,62.5747,11.3842,28.0,97,100,10.85,NO,1675854704
227,tres palos,18.1833,-101.6167,64.69,77,1,2.59,MX,1675854705
228,pevek,69.7008,170.3133,-22.34,99,100,5.06,RU,1675854705
229,willmar,45.1219,-95.0433,21.83,90,2,6.8,US,1675854706
230,teshie,5.5836,-0.1072,84.31,68,75,6.96,GH,1675854706
231,watsa,3.0372,29.5355,93.94,12,2,6.91,CD,1675854707
232,xifeng,42.7372,124.7222,13.93,80,0,3.42,CN,1675854707
233,thinadhoo,0.5333,72.9333,81.9,72,43,8.32,MV,1675854708
234,dong xoai,11.5333,106.9167,82.18,59,86,3.51,VN,1675854484
235,saint anthony,45.0205,-93.218,19.08,94,8,4.92,US,1675854512
236,antofagasta,-23.65,-70.4,69.57,87,80,2.21,CL,1675854709
237,port-cartier,50.0334,-66.8654,20.79,95,100,6.87,CA,1675854709
238,rocha,-34.4833,-54.3333,75.43,60,93,11.41,UY,1675854534
239,saint-francois,46.4154,3.9054,37.71,50,3,4.0,FR,1675854710
240,monywa,22.1167,95.1333,81.97,23,0,2.82,MM,1675854488
241,san jeronimo,-11.9472,-75.2829,46.89,80,91,2.89,PE,1675854711
242,buala,-8.145,159.5921,80.33,86,100,6.93,SB,1675854711
243,lavrentiya,65.5833,-171.0,-12.1,94,100,2.19,RU,1675854712
244,kuala terengganu,5.3302,103.1408,77.76,87,48,5.06,MY,1675854712
245,ahuimanu,21.4447,-157.8378,72.79,72,41,20.56,US,1675854713
246,ancud,-41.8697,-73.8203,55.18,92,3,2.44,CL,1675854523
247,kodala,19.6333,84.95,83.62,46,48,12.64,IN,1675854714
248,houma,29.5958,-90.7195,70.0,96,100,9.22,US,1675854714
249,vredendal,-31.6683,18.5012,93.78,28,0,7.11,ZA,1675854715
250,tiznit,29.5833,-9.5,55.65,38,0,2.68,MA,1675854715
251,deskati,39.9225,21.8028,30.36,35,44,4.12,GR,1675854716
252,taoudenni,22.6783,-3.9836,72.91,15,83,15.12,ML,1675854716
253,gashua,12.871,11.0482,86.85,13,93,17.38,NG,1675854497
254,labytnangi,66.6572,66.4183,9.72,96,100,8.08,RU,1675854717
255,kruisfontein,-34.0033,24.7314,70.88,62,95,12.86,ZA,1675854717
256,ilhabela,-23.7781,-45.3581,76.23,88,58,2.48,BR,1675854718
257,airai,-8.9266,125.4092,61.66,97,100,0.6,TL,1675854718
258,ondjiva,-17.0667,15.7333,79.23,30,100,5.95,AO,1675854718
259,kishtwar,33.3167,75.7667,51.89,43,95,0.45,IN,1675854719
260,rantepao,-2.9701,119.8978,69.4,92,100,2.46,ID,1675854719
261,constitucion,-35.3333,-72.4167,61.11,59,0,2.84,CL,1675854720
262,luderitz,-26.6481,15.1594,74.52,61,4,22.75,NA,1675854720
263,praia,14.9215,-23.5087,69.78,64,100,16.46,CV,1675854720
264,kaputa,-8.4689,29.6619,71.96,77,93,8.3,ZM,1675854721
265,fortuna,40.5982,-124.1573,43.99,94,88,3.4,US,1675854722
266,santa barbara,34.7333,-120.0343,43.72,60,57,7.0,US,1675854580
267,gardelegen,52.5252,11.3952,36.3,49,10,9.1,DE,1675854723
268,lorengau,-2.0226,147.2712,78.98,89,100,13.94,PG,1675854724
269,hachinohe,40.5,141.5,30.38,86,75,4.61,JP,1675854724
270,yenagoa,4.9247,6.2642,92.98,47,74,2.53,NG,1675854725
271,varhaug,58.6147,5.6457,43.3,94,99,18.66,NO,1675854726
272,beringovskiy,63.05,179.3167,-25.92,98,29,6.31,RU,1675854727
273,persianovskiy,47.5137,40.1075,25.32,63,0,20.13,RU,1675854728
274,bandarbeyla,9.4942,50.8122,79.34,67,26,12.33,SO,1675854731
275,fayetteville,35.0527,-78.8784,48.45,89,66,5.75,US,1675854732
276,codajas,-3.8367,-62.0569,73.18,98,100,1.66,BR,1675854733
277,tsiroanomandidy,-18.7667,46.0333,83.21,52,92,5.23,MG,1675854535
278,westport,41.1415,-73.3579,37.47,90,55,7.74,US,1675854734
279,balaipungut,1.05,101.2833,79.81,88,88,2.84,ID,1675854734
280,los llanos de aridane,28.6585,-17.9182,58.91,54,71,5.1,ES,1675854735
281,kathu,7.9178,98.3332,83.05,65,34,5.17,TH,1675854736
282,moose factory,51.2585,-80.6094,-9.38,98,22,5.39,CA,1675854457
283,mpanda,-6.3655,31.0409,79.38,60,36,9.04,TZ,1675854737
284,havelock,34.8791,-76.9013,50.7,90,45,6.22,US,1675854738
285,angoche,-16.2325,39.9086,84.13,75,100,6.13,MZ,1675854738
286,jabinyanah,35.035,10.9081,56.64,73,100,18.25,TN,1675854739
287,nova lima,-19.9856,-43.8467,73.71,81,85,2.95,BR,1675854740
288,bayevo,53.2833,80.7667,4.78,96,100,2.64,RU,1675854740
289,deputatskiy,69.3,139.9,-45.15,99,49,4.47,RU,1675854741
290,bertoua,4.5833,13.6833,96.42,10,23,4.41,CM,1675854741
291,longyearbyen,78.2186,15.6401,26.17,94,100,10.47,SJ,1675854742
292,port pirie,-33.1833,138.0167,84.74,23,51,10.51,AU,1675854743
293,saint-pierre,-21.3393,55.4781,82.62,71,55,15.32,RE,1675854575
294,elk river,45.3038,-93.5672,20.89,91,7,6.82,US,1675854744
295,huarmey,-10.0681,-78.1522,71.04,88,14,5.23,PE,1675854555
296,jiwani,25.05,61.7417,75.72,56,80,6.96,PK,1675854746
297,parati,-23.2178,-44.7131,77.27,92,77,1.43,BR,1675854746
298,sabha,27.0377,14.4283,66.9,21,36,20.24,LY,1675854747
299,port hardy,50.6996,-127.4199,39.45,83,63,6.82,CA,1675854747
300,yar-sale,66.8333,70.8333,9.9,94,100,20.92,RU,1675854748
301,cabo san lucas,22.8909,-109.9124,64.62,44,96,1.74,MX,1675854556
302,havre-saint-pierre,50.2334,-63.5986,22.95,95,100,13.89,CA,1675854531
303,namtsy,62.7161,129.6658,-43.42,100,96,0.81,RU,1675854750
304,urumqi,43.801,87.6005,26.92,75,4,6.78,CN,1675854601
305,sakakah,29.9697,40.2064,54.41,32,8,19.69,SA,1675854550
306,lakes entrance,-37.8811,147.981,65.16,87,83,15.99,AU,1675854751
307,gandu,-13.7439,-39.4867,77.38,64,92,2.8,BR,1675854751
308,vikulovo,56.8167,70.6107,0.95,97,57,4.03,RU,1675854752
309,bay roberts,47.5999,-53.2648,29.61,96,100,19.89,CA,1675854752
310,praia da vitoria,38.7333,-27.0667,56.32,62,74,12.35,PT,1675854753
311,kurumkan,54.3,110.3,1.69,95,100,2.26,RU,1675854753
312,kiama,-34.6833,150.8667,69.6,81,91,9.8,AU,1675854755
313,saskylakh,71.9167,114.0833,-32.01,100,98,3.91,RU,1675854756
314,anadyr,64.75,177.4833,-35.21,99,37,6.55,RU,1675854756
315,killybegs,54.6333,-8.45,47.35,78,100,25.48,IE,1675854757
316,huoqiu,32.3394,116.2694,46.67,67,100,11.92,CN,1675854757
317,surt,31.2089,16.5887,57.74,55,99,22.73,LY,1675854758
318,asau,46.4333,26.4,24.28,78,100,7.63,RO,1675854759
319,el tigre,8.8875,-64.2454,70.09,91,21,9.82,VE,1675854759
320,ponta do sol,32.6667,-17.1,61.72,63,46,3.15,PT,1675854472
321,porto murtinho,-21.6989,-57.8825,74.7,94,98,3.53,BR,1675854687
322,chumikan,54.7183,135.315,-15.0,86,92,10.58,RU,1675854760
323,coihaique,-45.5752,-72.0662,62.55,72,75,6.91,CL,1675854534
324,namatanai,-3.6667,152.4333,81.7,71,89,2.46,PG,1675854547
325,dudinka,69.4058,86.1778,-8.03,98,99,10.16,RU,1675854473
326,phan thiet,10.9333,108.1,78.87,76,16,15.01,VN,1675854571
327,ontario,34.0633,-117.6509,54.5,30,98,4.03,US,1675854518
328,tongchuan,35.0806,109.0897,33.51,95,100,7.09,CN,1675854762
329,villa carlos paz,-31.4241,-64.4978,77.76,43,7,2.75,AR,1675854762
330,adre,13.4667,22.2,82.99,10,73,20.98,TD,1675854763
331,pangnirtung,66.1451,-65.7125,-27.29,81,1,6.17,CA,1675854763
332,araouane,18.9048,-3.5265,78.33,13,62,17.81,ML,1675854764
333,mandan,46.8267,-100.8896,26.83,88,82,5.3,US,1675854764
334,te anau,-45.4167,167.7167,45.05,83,84,3.18,NZ,1675854765
335,espoo,60.25,24.6667,35.67,94,100,8.16,FI,1675854765
336,charters towers,-20.1,146.2667,80.22,70,100,13.78,AU,1675854766
337,krasnosilka,46.6226,30.7742,33.08,42,30,19.48,UA,1675854766
338,seymchan,62.8833,152.4333,-29.11,99,100,2.21,RU,1675854766
339,torbay,47.6666,-52.7314,29.46,97,100,23.02,CA,1675854767
340,ingenbohl,47.0046,8.6148,37.72,66,100,1.14,CH,1675854767
341,talakan,50.3167,130.3667,-20.61,99,20,3.33,RU,1675854768
342,kamenka,51.3223,42.7678,17.51,87,19,7.76,RU,1675854768
343,lyubokhna,53.5033,34.3885,25.03,74,34,6.53,RU,1675854769
344,olafsvik,64.8945,-23.7142,26.51,72,100,22.35,IS,1675854769
345,uglekamensk,43.2172,133.2303,10.0,93,38,2.82,RU,1675854769
346,ahipara,-35.1667,173.1667,63.55,87,27,7.45,NZ,1675854770
347,abashiri,44.0213,144.2697,19.09,94,100,3.8,JP,1675854770
348,wajima,37.4,136.9,39.47,60,100,12.57,JP,1675854771
349,cascais,38.6979,-9.4215,50.76,87,87,17.36,PT,1675854771
350,pasighat,28.0667,95.3333,67.69,55,56,1.83,IN,1675854772
351,luorong,24.4058,109.6086,58.14,91,96,4.03,CN,1675854772
352,bosaso,11.2842,49.1816,81.54,62,25,9.8,SO,1675854773
353,faya,18.3851,42.4509,66.22,44,75,9.8,SA,1675854773
354,pasni,25.2631,63.471,73.81,59,100,11.86,PK,1675854774
355,severo-kurilsk,50.6789,156.125,23.14,80,84,17.94,RU,1675854774
356,atambua,-9.1061,124.8925,74.12,92,100,1.23,ID,1675854775
357,provideniya,64.3833,-173.3,-17.72,99,96,3.56,RU,1675854775
358,balotra,25.8333,72.2333,86.07,10,2,7.34,IN,1675854776
359,harqalah,36.0303,10.509,55.0,78,95,23.42,TN,1675854776
360,eyemouth,55.8713,-2.0901,45.66,80,100,21.63,GB,1675854776
361,lewes,50.8736,0.0113,43.09,62,4,6.64,GB,1675854777
362,kankon,15.0167,74.0167,83.91,54,60,10.94,IN,1675854777
363,taunggyi,20.7833,97.0333,65.88,25,0,6.2,MM,1675854778
364,tanout,14.9709,8.8879,84.45,11,58,19.62,NE,1675854778
365,havoysund,70.9963,24.6622,37.44,66,100,33.15,NO,1675854778
366,emerald,-23.5333,148.1667,78.35,66,54,20.42,AU,1675854779
367,arica,-18.475,-70.3042,71.92,83,91,2.51,CL,1675854779
368,kokopo,-4.352,152.2633,80.8,78,100,9.35,PG,1675854780
369,prince rupert,54.3161,-130.3201,39.29,93,100,5.75,CA,1675854761
370,muli,2.9167,73.5667,81.63,67,93,9.35,MV,1675854780
371,eydhafushi,5.1033,73.0708,81.25,67,76,8.12,MV,1675854781
372,half moon bay,37.4636,-122.4286,50.07,74,1,4.88,US,1675854781
373,listvyanskiy,54.4399,83.4984,1.87,98,100,2.3,RU,1675854782
374,nykoping,58.753,17.0079,38.97,88,100,10.45,SE,1675854782
375,broken hill,-31.95,141.4333,82.26,17,0,8.5,AU,1675854783
376,meulaboh,4.1363,96.1285,79.32,81,98,1.9,ID,1675854784
377,yulin,22.6333,110.15,71.49,81,99,8.63,CN,1675854784
378,grindavik,63.8424,-22.4338,26.55,80,75,29.93,IS,1675854786
379,kamaishi,39.2667,141.8833,31.01,82,92,3.02,JP,1675854786
380,la palma,33.8464,-118.0467,60.91,53,0,0.0,US,1675854787
381,muros,42.7762,-9.0603,50.88,59,0,9.73,ES,1675854788
382,paraiso,9.8383,-83.8656,57.22,93,51,4.09,CR,1675854788
383,teglas,47.7167,21.6833,32.34,62,4,9.48,HU,1675854789
384,luwingu,-10.2621,29.9271,63.61,93,100,5.88,ZM,1675854789
385,aqtobe,50.2797,57.2072,14.09,67,0,11.18,KZ,1675854790
386,santo domingo,18.5001,-69.9886,67.44,93,1,7.96,DO,1675854588
387,talcahuano,-36.7167,-73.1167,57.04,77,0,3.87,CL,1675854615
388,port moresby,-9.4431,147.1797,74.14,94,100,7.14,PG,1675854791
389,assiniboia,49.6334,-105.9845,33.44,80,100,12.41,CA,1675854521
390,port macquarie,-31.4333,152.9167,70.18,74,10,7.25,AU,1675854792
391,bonthe,7.5264,-12.505,86.02,53,49,4.0,SL,1675854792
392,sorong,-0.8833,131.25,80.06,83,100,15.59,ID,1675854793
393,ray,23.6833,85.05,80.42,18,1,13.67,IN,1675854793
394,tilichiki,60.4667,166.1,-24.39,91,34,10.16,RU,1675854794
395,eureka,40.8021,-124.1637,45.45,90,96,3.56,US,1675854263
396,smithers,54.7804,-127.1743,19.26,97,98,0.31,CA,1675854795
397,goderich,43.7501,-81.7165,32.58,90,39,13.71,CA,1675854796
398,wanning,18.8003,110.3967,74.3,86,73,8.25,CN,1675854797
399,erzin,36.9559,36.2,44.89,37,4,13.89,TR,1675854798
400,gat,31.61,34.7642,53.83,58,93,21.07,IL,1675854798
401,nuevo progreso,23.1667,-97.95,68.81,93,28,2.77,MX,1675854799
402,tevaitoa,-16.7833,-151.5,80.33,73,4,10.71,PF,1675854800
403,berdigestyakh,62.0989,126.6992,-36.9,100,99,1.97,RU,1675854801
404,winona,43.9666,-91.7668,21.06,92,5,5.46,US,1675854802
405,normandin,48.8333,-72.5321,26.91,78,47,13.65,CA,1675854803
406,douglas,41.3,-96.167,32.94,82,0,6.89,US,1675854803
407,kenai,60.5544,-151.2583,13.93,91,96,7.58,US,1675854804
408,strunino,56.3833,38.5667,22.78,92,96,8.41,RU,1675854804
409,matagami,49.7502,-77.6328,-10.61,99,70,4.36,CA,1675854805
410,sitka,57.0531,-135.33,35.73,92,100,3.67,US,1675854603
411,xuddur,4.1213,43.8894,91.56,26,2,16.6,SO,1675854806
412,kitgum,3.2783,32.8867,96.84,15,62,7.14,UG,1675854806
413,sistranda,63.7256,8.834,40.05,65,100,13.06,NO,1675854807
414,necochea,-38.5473,-58.7368,72.25,75,60,4.65,AR,1675854808
415,aswan,24.0934,32.907,67.55,22,84,16.35,EG,1675854809
416,nemuro,43.3236,145.575,23.02,72,98,5.79,JP,1675854810
417,bereda,43.2686,-7.5406,48.15,75,4,2.77,ES,1675854810
418,korla,41.7597,86.1469,33.75,62,2,3.22,CN,1675854811
419,straumen,63.8709,11.2999,30.58,84,99,3.11,NO,1675854812
420,linxia,35.6003,103.2064,28.71,85,92,5.7,CN,1675854813
421,miraflores,19.2167,-98.8083,55.02,67,0,2.84,MX,1675854813
422,kondagaon,19.6,81.6667,88.47,14,18,9.86,IN,1675854814
423,kismayo,-0.3582,42.5454,83.19,65,2,16.73,SO,1675854815
424,isabela,6.7085,121.9711,78.22,82,100,3.69,PH,1675854815
425,fare,-16.7,-151.0167,80.11,76,12,11.36,PF,1675854816
426,corinto,37.9407,22.9573,41.58,60,90,8.66,GR,1675854569
427,torrington,41.8007,-73.1212,33.22,95,40,4.47,US,1675854661
428,omboue,-1.5746,9.2618,87.6,58,61,4.25,GA,1675854817
429,letlhakane,-21.4167,25.5833,88.43,33,99,8.14,BW,1675854818
430,khilok,51.3674,110.4676,1.76,98,45,1.05,RU,1675854819
431,nishihara,26.1842,127.7558,65.32,74,86,13.62,JP,1675854819
432,batsfjord,70.6345,29.7185,30.51,75,89,31.59,NO,1675854820
433,kawalu,-7.3817,108.2082,72.86,98,100,1.1,ID,1675854820
434,ambilobe,-13.2,49.05,85.33,70,96,7.02,MG,1675854820
435,vanimo,-2.6741,141.3028,77.32,93,100,6.53,PG,1675854821
436,gamboula,4.1178,15.1393,98.01,9,58,5.82,CF,1675854822
437,guerrero,17.6667,-100.0,61.3,69,0,3.67,MX,1675854822
438,valentin gomez farias,28.2167,-106.5833,32.72,50,0,7.96,MX,1675854823
439,kosh-agach,50.0,88.6667,0.91,83,100,3.6,RU,1675854823
440,obo,5.3998,26.4869,96.89,8,4,9.42,CF,1675854823
441,biak,-0.9131,122.8766,76.66,83,100,8.93,ID,1675854824
442,touros,-5.1989,-35.4608,81.36,68,100,12.15,BR,1675854824
443,matara,5.9485,80.5353,83.86,69,92,8.21,LK,1675854825
444,marsa matruh,31.3525,27.2453,55.27,53,100,14.72,EG,1675854825
445,ketchikan,55.3422,-131.6461,35.91,98,100,4.83,US,1675854825
446,rio gallegos,-51.6226,-69.2181,62.24,50,91,16.71,AR,1675854826
447,campbellton,48.0075,-66.6727,11.57,98,100,1.45,CA,1675854827
448,clevelandia,-26.3958,-52.4708,68.04,67,0,2.82,BR,1675854622
449,sinazongwe,-17.2614,27.4618,80.8,67,42,5.53,ZM,1675854827
450,podyuga,61.095,40.8647,27.68,95,100,7.27,RU,1675854828
451,belyy yar,53.6039,91.3903,17.98,97,100,2.64,RU,1675854828
452,la ronge,55.1001,-105.2842,11.3,95,34,5.66,CA,1675854828
453,ostrovnoy,68.0531,39.5131,26.24,72,25,18.34,RU,1675854829
454,whitehorse,60.7161,-135.0538,4.3,96,100,4.68,CA,1675854829
455,mezen,65.8522,44.24,26.46,91,6,7.38,RU,1675854830
456,bridgetown,13.1,-59.6167,76.35,80,19,16.22,BB,1675854784
457,hasaki,35.7333,140.8333,46.8,70,100,12.66,JP,1675854830
458,mandalgovi,45.7625,106.2708,12.94,90,100,5.23,MN,1675854831
459,chandbali,20.7833,86.7667,82.17,49,30,15.93,IN,1675854831
460,vazante,-17.9869,-46.9078,73.33,79,87,1.88,BR,1675854535
461,coos bay,43.3665,-124.2179,43.39,88,94,3.11,US,1675854832
462,rorvik,64.8621,11.2373,39.85,67,100,24.43,NO,1675854832
463,henties bay,-22.116,14.2845,69.24,77,92,8.7,NA,1675854541
464,shimoda,34.6667,138.95,43.11,79,57,8.9,JP,1675854833
465,general higinio morinigo,-25.95,-55.9167,74.82,45,11,3.09,PY,1675854833
466,hirara,24.8,125.2833,70.25,77,97,15.17,JP,1675854834
467,katsuura,35.1333,140.3,47.62,82,99,9.84,JP,1675854834
468,tura,25.5198,90.2201,74.05,38,2,1.5,IN,1675854834
469,nioro,13.35,-15.75,86.85,12,61,9.62,GM,1675854835
470,nuristan,35.3,70.8333,19.33,71,100,4.12,AF,1675854835
471,victoria,22.2855,114.1577,66.83,89,98,15.14,HK,1675854836
472,polewali,-3.4324,119.3435,81.25,79,77,2.21,ID,1675854836
473,port blair,11.6667,92.75,81.34,62,62,12.77,IN,1675854836
474,haines junction,60.7522,-137.5108,-2.02,100,98,2.24,CA,1675854837
475,montichiari,45.4152,10.3907,40.08,50,5,4.79,IT,1675854837
476,kijang,35.2442,129.2139,46.18,37,18,8.05,KR,1675854838
477,mujiayingzi,42.1167,118.7833,24.57,23,6,3.83,CN,1675854838
478,ngama,11.7833,17.1667,94.84,9,94,11.12,TD,1675854839
479,agirish,61.9247,63.0231,16.77,94,100,10.49,RU,1675854839
480,turukhansk,65.8167,87.9833,-0.2,99,95,3.8,RU,1675854840
481,bazarnyy karabulak,52.2683,46.4144,18.54,87,38,5.7,RU,1675854840
482,esmeraldas,-19.7625,-44.3139,72.14,84,96,3.65,BR,1675854813
483,isla vista,34.4133,-119.861,54.64,50,39,5.7,US,1675854841
484,tagusao,9.1924,117.8141,78.8,80,100,4.74,PH,1675854841
485,qostanay,53.1667,63.5833,0.63,96,42,3.89,KZ,1675854842
486,billings,45.7833,-108.5007,34.36,56,100,13.87,US,1675854802
487,dunmore east,52.1514,-6.9861,47.37,82,81,17.43,IE,1675854843
488,santa cruz,-17.8,-63.1667,70.27,96,100,5.82,BO,1675854844
489,dingle,10.9995,122.6711,74.46,86,100,7.18,PH,1675854657
490,dunedin,-45.8742,170.5036,50.81,66,25,17.87,NZ,1675854845
491,comodoro rivadavia,-45.8667,-67.5,67.82,53,26,15.32,AR,1675854845
492,tigre,-34.426,-58.5796,77.13,44,79,5.97,AR,1675854846
493,karratha,-20.7377,116.8463,88.12,58,30,11.56,AU,1675854847
494,flin flon,54.7682,-101.865,10.51,95,11,5.21,CA,1675854847
495,trabzon,40.9167,39.8333,37.58,64,79,5.46,TR,1675854848
496,visby,57.6409,18.296,36.66,91,100,17.09,SE,1675854848
497,turayf,31.6725,38.6637,44.15,56,82,26.19,SA,1675854849
498,axim,4.8699,-2.2405,84.97,65,100,5.64,GH,1675854850
499,ulladulla,-35.35,150.4667,66.61,89,88,5.32,AU,1675854851
500,anupgarh,29.1911,73.2086,78.22,18,15,1.39,IN,1675854851
501,kulhudhuffushi,6.6221,73.07,80.92,72,93,9.1,MV,1675854852
502,kaeo,-35.1,173.7833,61.3,92,53,4.74,NZ,1675854852
503,huilong,31.8111,121.655,44.6,79,100,11.12,CN,1675854853
504,lekoni,-1.5843,14.2591,90.3,42,17,5.7,GA,1675854853
505,melilla,35.2937,-2.9383,58.44,69,23,7.31,ES,1675854854
506,bukachacha,52.9833,116.9167,-10.44,100,19,0.47,RU,1675854854
507,taree,-31.9,152.4667,66.78,82,26,3.78,AU,1675854855
508,hun,29.1268,15.9477,64.72,28,72,17.81,LY,1675854856
509,lasa,46.6166,10.7002,33.17,67,27,3.76,IT,1675854856
510,marawi,7.9986,124.2928,67.59,92,100,2.39,PH,1675854857
511,yala,6.3333,101.25,78.03,88,81,4.03,TH,1675854857
512,sarahan,31.5167,77.8,48.4,34,97,1.66,IN,1675854858
513,yerbogachen,61.2767,108.0108,-10.37,99,100,3.22,RU,1675854858
514,davila,18.4726,120.5763,78.75,80,6,10.09,PH,1675854860
515,birobidzhan,48.8,132.95,-12.73,94,14,4.41,RU,1675854861
516,mahajanga,-15.7167,46.3167,83.55,69,99,7.61,MG,1675854862
517,arkansas city,37.062,-97.0384,32.49,74,0,6.91,US,1675854862
518,tamworth,52.634,-1.6959,41.72,64,64,8.9,GB,1675854863
519,tokur,53.1333,132.9,-30.21,100,99,0.47,RU,1675854864
520,zeya,53.75,127.2667,-21.71,96,30,4.59,RU,1675854865
521,egvekinot,66.3167,-179.1667,-20.27,89,99,7.0,RU,1675854865
522,salalah,17.0151,54.0924,80.69,61,0,8.05,OM,1675854866
523,margate,51.3813,1.3862,42.08,58,26,7.99,GB,1675854668
524,anito,12.4497,125.2886,77.81,79,100,10.6,PH,1675854868
525,shurugwi,-19.6702,30.0059,85.37,29,26,2.98,ZW,1675854868
526,alyangula,-13.8483,136.4192,84.67,70,100,7.31,AU,1675854869
527,launceston,-41.45,147.1667,59.14,74,91,0.83,AU,1675854869
528,hamilton,39.1834,-84.5333,36.99,84,96,2.91,US,1675854647
529,botwood,49.1499,-55.3482,8.08,98,100,2.19,CA,1675854870
530,umred,20.85,79.3333,89.38,12,40,8.46,IN,1675854871
531,baiquan,47.5833,126.0833,-7.22,100,31,5.06,CN,1675854871
532,khor,47.8861,134.9464,-18.0,99,15,3.29,RU,1675854872
533,puerto madryn,-42.7692,-65.0385,69.12,40,3,5.66,AR,1675854872
534,boden,65.8252,21.6886,35.92,82,97,12.48,SE,1675854873
535,inhambane,-23.865,35.3833,87.89,60,10,10.92,MZ,1675854873
536,puerto escondido,15.85,-97.0667,75.09,67,0,5.68,MX,1675854874
537,saint-augustin,51.226,-58.6502,-2.49,98,81,4.23,CA,1675854874
538,umea,63.8284,20.2597,35.53,80,0,14.97,SE,1675854709
539,turiacu,-1.6633,-45.3717,76.06,94,100,3.13,BR,1675854681
540,alofi,-19.0595,-169.9187,80.28,80,100,13.53,NU,1675854875
541,baherden,38.4362,57.4316,55.58,54,82,14.74,TM,1675854876
542,xingcheng,40.6167,120.7167,28.18,61,6,6.42,CN,1675854876
543,mgandu,-5.95,34.1333,71.78,76,74,3.67,TZ,1675854877
544,champerico,14.3,-91.9167,73.9,74,0,6.38,GT,1675854878
545,ruteng,-8.6136,120.4721,63.86,95,98,2.19,ID,1675854878
546,mitchell,43.7094,-98.0298,20.23,90,0,5.53,US,1675854766
547,mwene-ditu,-7.0,23.45,71.4,86,100,4.16,CD,1675854879
548,inirida,3.8653,-67.9239,71.55,98,96,0.4,CO,1675854879
549,peniche,39.3558,-9.3811,51.12,88,89,21.43,PT,1675854880
550,grand gaube,-20.0064,57.6608,80.49,74,90,16.98,MU,1675854880
551,west bay,19.3667,-81.4167,78.62,75,7,22.19,KY,1675854881
552,atar,20.5169,-13.0499,71.47,16,91,13.27,MR,1675854881
553,senneterre,48.3835,-77.2328,-2.99,99,97,4.43,CA,1675854881
554,ongandjera,-17.8833,15.0667,80.98,31,100,5.97,NA,1675854882
555,pemberton,50.3164,-122.8027,20.53,94,47,2.04,CA,1675854882
556,zaranj,30.9667,61.8833,72.12,24,8,1.81,AF,1675854883
557,verkhnevilyuysk,63.4453,120.3167,-43.06,100,93,2.21,RU,1675854883
558,warrnambool,-38.3833,142.4833,59.09,91,37,9.28,AU,1675854884
559,aklavik,68.2191,-135.0107,-29.88,98,90,3.4,CA,1675854884
560,kloulklubed,7.0419,134.2556,82.6,77,65,15.61,PW,1675854884
561,qaqortoq,60.7167,-46.0333,5.16,62,96,12.8,GL,1675854648
562,kropotkin,45.4375,40.5756,24.78,85,100,16.49,RU,1675854885
563,monrovia,6.3005,-10.7969,81.55,74,82,3.71,LR,1675854886
564,nadadores,27.05,-101.6,52.77,71,81,5.64,MX,1675854886
565,elk city,35.412,-99.4043,41.76,48,100,10.56,US,1675854886
566,jieshi,22.8134,115.8257,64.33,83,100,20.85,CN,1675854887
567,lotofaga,-13.9764,-171.8578,82.63,77,99,16.26,WS,1675854887
568,sibiti,-3.6819,13.3499,75.33,83,94,2.8,CG,1675854888
569,kyren,51.6828,102.1408,7.47,85,11,2.51,RU,1675854888
570,berezivka,47.2043,30.9078,32.86,41,19,17.2,UA,1675854888
571,noumea,-22.2763,166.4572,78.78,84,100,9.19,NC,1675854889
572,okha,53.5739,142.9478,-17.72,94,100,10.71,RU,1675854890
573,parakai,-36.65,174.4333,62.01,85,5,6.89,NZ,1675854890
574,mayya,61.7333,130.2811,-40.94,100,95,1.9,RU,1675854890
575,chama,47.1821,8.4636,32.79,59,6,2.84,CH,1675854891
